{
  "pasos_fronterizos": [
    { "nombre": "Paso Pino Hachado",      "lat": -38.660, "lon": -71.044, "horario": "08:00–20:00", "altura": 1864 },
    { "nombre": "Paso Mamuil Malal",      "lat": -39.564, "lon": -71.504, "horario": "08:00–20:00", "altura": 1207 },
    { "nombre": "Paso Cardenal Samoré",   "lat": -40.731, "lon": -71.901, "horario": "08:00–20:00", "altura": 1321 },
    { "nombre": "Paso Pehuenche",         "lat": -35.978, "lon": -70.394, "horario": "08:00–20:00", "altura": 2553 },
    { "nombre": "Paso Pichachén",         "lat": -37.379, "lon": -71.118, "horario": "08:00–18:00", "altura": 2070 },
    { "nombre": "Paso Icalma",            "lat": -38.804, "lon": -71.253, "horario": "08:00–20:00", "altura": 1303 },
    { "nombre": "Paso Hua Hum",           "lat": -40.092, "lon": -71.677, "horario": "08:30–18:00", "altura": 659  }
  ],
  "refugios_conaf": [
    { "nombre": "Refugio Pellaifa (Villarrica)",   "lat": -39.398, "lon": -71.952 },
    { "nombre": "Refugio Llaima (Conguillío)",     "lat": -38.692, "lon": -71.733 },
    { "nombre": "Refugio Antuco (Laguna del Laja)","lat": -37.448, "lon": -71.385 },
    { "nombre": "Refugio Lonquimay (Malalcahuello)","lat":-38.471,"lon": -71.560 },
    { "nombre": "Refugio Volcán Osorno",           "lat": -41.121, "lon": -72.494 },
    { "nombre": "Refugio Termas de Chillán",       "lat": -36.910, "lon": -71.408 }
  ],
  "_frontera_nota": "Aproximación de la divisoria de aguas Chile–Argentina entre los paralelos -34 y -47. Resolución gruesa (no apta para uso legal/catastral); sirve solo para indicar el límite hasta donde llegan los datos SUBTEL en este visor.",
  "frontera_cl_ar": [
    [-34.20, -69.83], [-34.50, -69.85], [-34.85, -69.96], [-35.10, -70.20],
    [-35.40, -70.42], [-35.78, -70.39], [-36.05, -70.40], [-36.30, -70.51],
    [-36.55, -70.90], [-36.85, -71.06], [-37.10, -71.15], [-37.40, -71.21],
    [-37.65, -71.13], [-37.85, -71.05], [-38.10, -71.06], [-38.38, -71.04],
    [-38.65, -71.09], [-38.90, -71.32], [-39.15, -71.42], [-39.42, -71.49],
    [-39.70, -71.51], [-39.95, -71.50], [-40.20, -71.66], [-40.45, -71.85],
    [-40.78, -71.94], [-41.10, -71.85], [-41.40, -71.74], [-41.70, -71.81],
    [-42.05, -71.85], [-42.40, -71.92], [-42.80, -71.95], [-43.20, -71.83],
    [-43.55, -71.65], [-43.90, -71.72], [-44.30, -71.77], [-44.70, -71.62],
    [-45.10, -71.72], [-45.50, -71.80], [-45.90, -71.65], [-46.30, -71.74],
    [-46.65, -71.94], [-46.95, -72.00], [-47.30, -72.10]
  ]
}
